[
  {
    "original_address": "caleradelsur95@gmail.com casa, virgen del rosario y parana -general artigas, itapua",
    "cleaned_address": "Virgen del Rosario y Paraná, General Artigas, Itapúa, Paraguay",
    "state": "Itapúa",
    "city": "General Artigas",
    "street": "Virgen del Rosario y Paraná",
    "country": "Paraguay",
    "latitude": -26.9382401,
    "longitude": -56.2191656,
    "maps_link": "https://www.google.com/maps?q=-26.9382401,-56.2191656"
  },
  {
    "original_address": "Paseo del yatch y Del Cerro Edificio Excellence Piso 15 A, Lambare, Central",
    "cleaned_address": "Paseo del Yacht y Del Cerro, Edificio Excellence Piso 15 A, Lambare, Central, Paraguay",
    "state": "Central",
    "city": "Lambare",
    "street": "Paseo del Yacht y Del Cerro",
    "country": "Paraguay",
    "latitude": -25.370133,
    "longitude": -57.6302092,
    "maps_link": "https://www.google.com/maps?q=-25.370133,-57.6302092"
  },
  {
    "original_address": "Avda. Lopez Godoy, Ruta 1, Km. 20, Capiata, Other, 2560",
    "cleaned_address": "Avenida Lopez Godoy, Ruta 1 Kilómetro 20, Capiatá, Central, Paraguay",
    "state": "Central",
    "city": "Capiatá",
    "street": "Avenida Lopez Godoy, Ruta 1 Kilómetro 20",
    "country": "Paraguay",
    "latitude": -25.3979025,
    "longitude": -57.4741961,
    "maps_link": "https://www.google.com/maps?q=-25.3979025,-57.4741961"
  },
  {
    "original_address": "Carlos antonio lopez c/ Constitucion Nacional S3-C2, Encarnacion, Itapua, 6000",
    "cleaned_address": "Carlos Antonio López c/ Constitución Nacional S3-C2, Encarnación, Itapúa, 6000, Paraguay",
    "state": "Itapúa",
    "city": "Encarnación",
    "street": "Carlos Antonio López c/ Constitución Nacional",
    "country": "Paraguay",
    "latitude": -27.3280897,
    "longitude": -55.87068,
    "maps_link": "https://www.google.com/maps?q=-27.3280897,-55.87068"
  },
  {
    "original_address": "territorio social 31 de julio calle itacurubi manzana 9 lpte 8, coronel oviedo, caaguazu, 50111",
    "cleaned_address": "Territorio Social 31 de Julio, Calle Itacurubi, Manzana 9, Lote 8, Coronel Oviedo, Caaguazú, 50111, Paraguay",
    "state": "Caaguazú",
    "city": "Coronel Oviedo",
    "street": "Territorio Social 31 de Julio, Calle Itacurubi",
    "country": "Paraguay",
    "latitude": -25.4253902,
    "longitude": -56.462892,
    "maps_link": "https://www.google.com/maps?q=-25.4253902,-56.462892"
  },
  {
    "original_address": "Benjamin Constant c/ Colón Edificio Colon 1 dpto 12B, Asuncion, Central, 001101",
    "cleaned_address": "Benjamin Constant y Colón, Edificio Colón 1, Departamento 12B, Asunción, Central, 001101, Paraguay",
    "state": "Central",
    "city": "Asunción",
    "street": "Benjamin Constant y Colón",
    "country": "Paraguay",
    "latitude": -25.2769398,
    "longitude": -57.6396509,
    "maps_link": "https://www.google.com/maps?q=-25.2769398,-57.6396509"
  },
  {
    "original_address": "isla pucu casa, lambare, assumption",
    "cleaned_address": "Isla Pucú, Lambaré, Central, Paraguay",
    "state": "Central",
    "city": "Lambaré",
    "street": "Isla Pucú",
    "country": "Paraguay",
    "latitude": -25.3595313,
    "longitude": -57.6340928,
    "maps_link": "https://www.google.com/maps?q=-25.3595313,-57.6340928"
  },
  {
    "original_address": "cale principal mecanica agrícola wille, santa Rosa del monday, alto Parana Paraguaiy, 101501",
    "cleaned_address": "Calle Principal, Mecánica Agrícola Wille, Santa Rosa del Monday, Alto Paraná, Paraguay",
    "state": "Alto Paraná",
    "city": "Santa Rosa del Monday",
    "street": "Calle Principal, Mecánica Agrícola Wille",
    "country": "Paraguay",
    "latitude": -25.8058117,
    "longitude": -54.9011285,
    "maps_link": "https://www.google.com/maps?q=-25.8058117,-54.9011285"
  },
  {
    "original_address": "Col. Independencia Planta Urbana, Guaira, Independencia, CP-040712",
    "cleaned_address": "Colonia Independencia Planta Urbana, Independencia, Guairá, CP-040712, Paraguay",
    "state": "Guairá",
    "city": "Independencia",
    "street": "Colonia Independencia Planta Urbana",
    "country": "Paraguay",
    "latitude": -25.6915348,
    "longitude": -56.26499159999999,
    "maps_link": "https://www.google.com/maps?q=-25.6915348,-56.26499159999999"
  },
  {
    "original_address": "Estrella 692 piso 3 oficina 37, Asuncion, Central, 1225",
    "cleaned_address": "Estrella 692, Piso 3, Oficina 37, Asunción, Central, 1225, Paraguay",
    "state": "Central",
    "city": "Asunción",
    "street": "Estrella",
    "country": "Paraguay",
    "latitude": -25.2637399,
    "longitude": -57.57592599999999,
    "maps_link": "https://www.google.com/maps?q=-25.2637399,-57.57592599999999"
  },
  {
    "original_address": "Presidente franco casi colon (microcentro) Edificio durand depto 801, Asuncion, Central, 021",
    "cleaned_address": "Presidente Franco casi Colón (Microcentro), Edificio Durand Depto 801, Asunción, Central, Paraguay, 021",
    "state": "Central",
    "city": "Asunción",
    "street": "Presidente Franco casi Colón",
    "country": "Paraguay",
    "latitude": -25.2777357,
    "longitude": -57.6402545,
    "maps_link": "https://www.google.com/maps?q=-25.2777357,-57.6402545"
  },
  {
    "original_address": "Presidente franco casi colon (microcentro) Edificio durand depto 801, Asuncion, Central, 021",
    "cleaned_address": "Presidente Franco casi Colón (Microcentro), Edificio Durand, Depto 801, Asunción, Central, 021, Paraguay",
    "state": "Central",
    "city": "Asunción",
    "street": "Presidente Franco casi Colón (Microcentro)",
    "country": "Paraguay",
    "latitude": -25.2777357,
    "longitude": -57.6402545,
    "maps_link": "https://www.google.com/maps?q=-25.2777357,-57.6402545"
  },
  {
    "original_address": "Presidente franco casi colon (microcentro) Edificio durand depto 801, Asuncion, Central, 021",
    "cleaned_address": "Presidente Franco casi Colón (Microcentro), Edificio Durand, Depto. 801, Asunción, Central, 021, Paraguay",
    "state": "Central",
    "city": "Asunción",
    "street": "Presidente Franco casi Colón",
    "country": "Paraguay",
    "latitude": -25.2777357,
    "longitude": -57.6402545,
    "maps_link": "https://www.google.com/maps?q=-25.2777357,-57.6402545"
  },
  {
    "original_address": "Correo Paraguayo, agencia “Campus” UNA ruta Mcal Estigarribia km 10,5 San Lorenzo. Correo Paraguayo. Contacto 0971842640, San Lorenzo, Paraguay, 111421",
    "cleaned_address": "Correo Paraguayo, Agencia Campus UNA, Ruta Mariscal Estigarribia km 10.5, San Lorenzo, Central, Paraguay, 111421",
    "state": "Central",
    "city": "San Lorenzo",
    "street": "Ruta Mariscal Estigarribia km 10.5",
    "country": "Paraguay",
    "latitude": -25.3380416,
    "longitude": -57.5262619,
    "maps_link": "https://www.google.com/maps?q=-25.3380416,-57.5262619"
  },
  {
    "original_address": "isla pucu casa, lambare, assumption",
    "cleaned_address": "Isla Pucú, Lambaré, Central, Paraguay",
    "state": "Central",
    "city": "Lambaré",
    "street": "Isla Pucú",
    "country": "Paraguay",
    "latitude": -25.3595313,
    "longitude": -57.6340928,
    "maps_link": "https://www.google.com/maps?q=-25.3595313,-57.6340928"
  },
  {
    "original_address": "ex combatiente roque osorio casi bernardino caballero, ypane, central, 2660",
    "cleaned_address": "Ex Combatiente Roque Osorio casi Bernardino Caballero, Ypané, Central, Paraguay, 2660",
    "state": "Central",
    "city": "Ypané",
    "street": "Ex Combatiente Roque Osorio casi Bernardino Caballero",
    "country": "Paraguay",
    "latitude": -25.4655038,
    "longitude": -57.48441529999999,
    "maps_link": "https://www.google.com/maps?q=-25.4655038,-57.48441529999999"
  },
  {
    "original_address": "Leandro Prieto casi Tte Islas, Asuncion, Mburicao, 1229",
    "cleaned_address": "Leandro Prieto casi Teniente Islas, Mburicao, Asunción, Distrito Capital, 1229, Paraguay",
    "state": "Distrito Capital",
    "city": "Asunción",
    "street": "Leandro Prieto casi Teniente Islas",
    "country": "Paraguay",
    "latitude": -25.2965422,
    "longitude": -57.5986771,
    "maps_link": "https://www.google.com/maps?q=-25.2965422,-57.5986771"
  },
  {
    "original_address": "Don Luis Guanella y General José Maria Bruguez casa, Ciudad Nueva, Asuncion, 001225",
    "cleaned_address": "Don Luis Guanella y General José María Bruguez, Ciudad Nueva, Asunción, 001225, Paraguay",
    "state": "Asunción",
    "city": "Asunción",
    "street": "Don Luis Guanella y General José María Bruguez",
    "country": "Paraguay",
    "latitude": -25.2982908,
    "longitude": -57.6191501,
    "maps_link": "https://www.google.com/maps?q=-25.2982908,-57.6191501"
  },
  {
    "original_address": "Sargento Insfran 1069, Asuncion, Capital, 001525",
    "cleaned_address": "Sargento Insfrán 1069, Asunción, Distrito Capital, 001525, Paraguay",
    "state": "Distrito Capital",
    "city": "Asunción",
    "street": "Sargento Insfrán",
    "country": "Paraguay",
    "latitude": -25.2710149,
    "longitude": -57.55737679999999,
    "maps_link": "https://www.google.com/maps?q=-25.2710149,-57.55737679999999"
  },
  {
    "original_address": "Estrella 692 piso 3 oficina 37, Asuncion, Central, 1225",
    "cleaned_address": "Estrella 692 piso 3 oficina 37, Asunción, Central, 1225, Paraguay",
    "state": "Central",
    "city": "Asunción",
    "street": "Estrella",
    "country": "Paraguay",
    "latitude": -25.2637399,
    "longitude": -57.57592599999999,
    "maps_link": "https://www.google.com/maps?q=-25.2637399,-57.57592599999999"
  },
  {
    "original_address": "Avda. 29 DE SEPTIEMBRE / 8 DE DICIEMBRE, Itapua, Bella Vista, 6310",
    "cleaned_address": "Avenida 29 de Septiembre / 8 de Diciembre, Bella Vista, Itapúa, 6310, Paraguay",
    "state": "Itapúa",
    "city": "Bella Vista",
    "street": "Avenida 29 de Septiembre / 8 de Diciembre",
    "country": "Paraguay",
    "latitude": -27.05,
    "longitude": -55.55,
    "maps_link": "https://www.google.com/maps?q=-27.05,-55.55"
  },
  {
    "original_address": "Avda Fernando de la Mora 5214, casi El Mensu Casa N: 5214, Pedro Juan Caballero, Amambay, 130109",
    "cleaned_address": "Avenida Fernando de la Mora 5214, casi El Mensu, Pedro Juan Caballero, Amambay, Paraguay",
    "state": "Amambay",
    "city": "Pedro Juan Caballero",
    "street": "Avenida Fernando de la Mora casi El Mensu",
    "country": "Paraguay",
    "latitude": -22.5490793,
    "longitude": -55.7541608,
    "maps_link": "https://www.google.com/maps?q=-22.5490793,-55.7541608"
  },
  {
    "original_address": "Benjamin Constant c/ Colón Edificio Colon 1 dpto 12B, Asuncion, Central, 001101",
    "cleaned_address": "Benjamin Constant c/ Colón, Edificio Colon 1, Dpto. 12B, Asunción, Central, 001101, Paraguay",
    "state": "Central",
    "city": "Asunción",
    "street": "Benjamin Constant c/ Colón",
    "country": "Paraguay",
    "latitude": -25.2769398,
    "longitude": -57.6396509,
    "maps_link": "https://www.google.com/maps?q=-25.2769398,-57.6396509"
  },
  {
    "original_address": "calle 11 de septiembre y virgen de Guadalupe 1, san lorenzo, central, 2160",
    "cleaned_address": "Calle 11 de Septiembre y Virgen de Guadalupe 1, San Lorenzo, Central, 2160, Paraguay",
    "state": "Central",
    "city": "San Lorenzo",
    "street": "Calle 11 de Septiembre y Virgen de Guadalupe",
    "country": "Paraguay",
    "latitude": -25.3430558,
    "longitude": -57.5030939,
    "maps_link": "https://www.google.com/maps?q=-25.3430558,-57.5030939"
  },
  {
    "original_address": "Avda San Blas km 9.5 Condominio Alto los Pinos, Ciudad del Este, Alto Parana, 888888",
    "cleaned_address": "Avenida San Blas km 9.5, Condominio Alto los Pinos, Ciudad del Este, Alto Paraná, Paraguay",
    "state": "Alto Paraná",
    "city": "Ciudad del Este",
    "street": "Avenida San Blas km 9.5, Condominio Alto los Pinos",
    "country": "Paraguay",
    "latitude": -25.490653,
    "longitude": -54.69459000000001,
    "maps_link": "https://www.google.com/maps?q=-25.490653,-54.69459000000001"
  },
  {
    "original_address": "934 Comuneros, Villarrica, guaira, 5000",
    "cleaned_address": "934 Comuneros, Villarrica, Guairá, 5000, Paraguay",
    "state": "Guairá",
    "city": "Villarrica",
    "street": "Comuneros",
    "country": "Paraguay",
    "latitude": -25.7704544,
    "longitude": -56.4437535,
    "maps_link": "https://www.google.com/maps?q=-25.7704544,-56.4437535"
  },
  {
    "original_address": "San Lorenzo c/ Bernardino Caballero $address.address2, Caaguazu, Caaguazu, 3400",
    "cleaned_address": "San Lorenzo c/ Bernardino Caballero, Caaguazú, Caaguazú, 3400",
    "state": "Caaguazú",
    "city": "Caaguazú",
    "street": "San Lorenzo c/ Bernardino Caballero",
    "country": "Paraguay",
    "latitude": -25.4641186,
    "longitude": -56.0189271,
    "maps_link": "https://www.google.com/maps?q=-25.4641186,-56.0189271"
  },
  {
    "original_address": "Gral.Patricio Escobar, hernandarias, Alto Parana, 7220",
    "cleaned_address": "General Patricio Escobar, Hernandarias, Alto Paraná, 7220, Paraguay",
    "state": "Alto Paraná",
    "city": "Hernandarias",
    "street": "General Patricio Escobar",
    "country": "Paraguay",
    "latitude": -25.3957587,
    "longitude": -54.6439931,
    "maps_link": "https://www.google.com/maps?q=-25.3957587,-54.6439931"
  },
  {
    "original_address": "Tte. 2do Alejandro Monges, RC4 Acacaraya Casa NRO 7, Asuncion, Asuncion, 001510",
    "cleaned_address": "Teniente Segundo Alejandro Monges, RC4 Acacaraya Casa Nº 7, Asunción, Asunción, 001510",
    "state": "Asunción",
    "city": "Asunción",
    "street": "Teniente Segundo Alejandro Monges",
    "country": "Paraguay",
    "latitude": -25.2459308,
    "longitude": -57.5497022,
    "maps_link": "https://www.google.com/maps?q=-25.2459308,-57.5497022"
  },
  {
    "original_address": "Acceso sur casi San Sinforiano Bogarin Departamento 2B, villa elisa, tres bocas, 111503",
    "cleaned_address": "Acceso Sur casi San Sinforiano Bogarín, Departamento 2B, Villa Elisa, Tres Bocas, 111503, Paraguay",
    "state": "Central",
    "city": "Villa Elisa",
    "street": "Acceso Sur casi San Sinforiano Bogarín",
    "country": "Paraguay",
    "latitude": -25.3514684,
    "longitude": -57.5723977,
    "maps_link": "https://www.google.com/maps?q=-25.3514684,-57.5723977"
  },
  {
    "original_address": "Rio apa 1091, Villarrica, Guaira, 040102",
    "cleaned_address": "Río Apa 1091, Villarrica, Guairá, 040102, Paraguay",
    "state": "Guairá",
    "city": "Villarrica",
    "street": "Río Apa",
    "country": "Paraguay",
    "latitude": -25.7666148,
    "longitude": -56.4426899,
    "maps_link": "https://www.google.com/maps?q=-25.7666148,-56.4426899"
  },
  {
    "original_address": "Pellegrini 137 y Molas Lopez Barrio Maria Auxiliadora, Asuncion, Asuncion, 1743",
    "cleaned_address": "Pellegrini y Molas Lopez, Barrio Maria Auxiliadora, Asunción, Asunción, 1743, Paraguay",
    "state": "Asunción",
    "city": "Asunción",
    "street": "Pellegrini y Molas Lopez",
    "country": "Paraguay",
    "latitude": -25.2627029,
    "longitude": -57.5791739,
    "maps_link": "https://www.google.com/maps?q=-25.2627029,-57.5791739"
  },
  {
    "original_address": "Cirilo Noguera entre Pte. Franco y San Francisco, Nemby, Departamento Central, 111213",
    "cleaned_address": "Cirilo Noguera entre Presidente Franco y San Francisco, Nemby, Departamento Central, 111213, Paraguay",
    "state": "Central",
    "city": "Nemby",
    "street": "Cirilo Noguera entre Presidente Franco y San Francisco",
    "country": "Paraguay",
    "latitude": -25.3934064,
    "longitude": -57.5681771,
    "maps_link": "https://www.google.com/maps?q=-25.3934064,-57.5681771"
  },
  {
    "original_address": "Bella Vista & Ingavi, 2300 Fernando de la Mora, Paraguay, Fernando de la Mora, Central, 2300",
    "cleaned_address": "Bella Vista & Ingavi, 2300 Fernando de la Mora, Central, Paraguay",
    "state": "Central",
    "city": "Fernando de la Mora",
    "street": "Bella Vista & Ingavi",
    "country": "Paraguay",
    "latitude": -25.3211583,
    "longitude": -57.52949280000001,
    "maps_link": "https://www.google.com/maps?q=-25.3211583,-57.52949280000001"
  },
  {
    "original_address": "Estrella 660 entre 15 de agosto y oleary Estacionamiento, asuncion, asuncion, 001001",
    "cleaned_address": "Estrella 660 entre 15 de Agosto y O'Leary Estacionamiento, Asunción, Asunción, 001001",
    "state": "Asunción",
    "city": "Asunción",
    "street": "Estrella entre 15 de Agosto y O'Leary",
    "country": "Paraguay",
    "latitude": -25.3458945,
    "longitude": -57.63332750000001,
    "maps_link": "https://www.google.com/maps?q=-25.3458945,-57.63332750000001"
  },
  {
    "original_address": "De la victoria, San bernardino, Cordillera, 031601",
    "cleaned_address": "De la Victoria, San Bernardino, Cordillera, 031601, Paraguay",
    "state": "Cordillera",
    "city": "San Bernardino",
    "street": "De la Victoria",
    "country": "Paraguay",
    "latitude": -25.3012902,
    "longitude": -57.3011668,
    "maps_link": "https://www.google.com/maps?q=-25.3012902,-57.3011668"
  },
  {
    "original_address": "Benjamin Constant c/ Colón Edificio Colon 1 dpto 12B, Asuncion, Central, 001101",
    "cleaned_address": "Benjamin Constant c/ Colón Edificio Colon 1 dpto 12B, Asuncion, Central, Paraguay, 001101",
    "state": "Central",
    "city": "Asuncion",
    "street": "Benjamin Constant c/ Colón",
    "country": "Paraguay",
    "latitude": -25.2769398,
    "longitude": -57.6396509,
    "maps_link": "https://www.google.com/maps?q=-25.2769398,-57.6396509"
  },
  {
    "original_address": "Avda. Artigas casi Sargento esteban Martinez Edificio Don Hector apto 8, Asuncion, Central, 1418",
    "cleaned_address": "Avenida Artigas casi Sargento Esteban Martínez, Edificio Don Héctor, Apartamento 8, Asunción, Central, 1418, Paraguay",
    "state": "Central",
    "city": "Asunción",
    "street": "Avenida Artigas casi Sargento Esteban Martínez",
    "country": "Paraguay",
    "latitude": -25.2589146,
    "longitude": -57.58777060000001,
    "maps_link": "https://www.google.com/maps?q=-25.2589146,-57.58777060000001"
  },
  {
    "original_address": "Bernardino Caballero 729 8423 NW 74Th Street84, Asuncion, Central, 1119",
    "cleaned_address": "Bernardino Caballero 729, Asuncion, Central, Paraguay, 1119",
    "state": "Central",
    "city": "Asuncion",
    "street": "Bernardino Caballero",
    "country": "Paraguay",
    "latitude": -25.3291339,
    "longitude": -57.5655953,
    "maps_link": "https://www.google.com/maps?q=-25.3291339,-57.5655953"
  },
  {
    "original_address": "San Pedro, Capiata, Asuncion, 110201",
    "cleaned_address": "San Pedro, Asunción, 110201",
    "state": "Capital District",
    "city": "Asunción",
    "street": "San Pedro",
    "country": "Paraguay",
    "latitude": -25.2622439,
    "longitude": -57.5769452,
    "maps_link": "https://www.google.com/maps?q=-25.2622439,-57.5769452"
  },
  {
    "original_address": "Avda. 29 DE SEPTIEMBRE / 8 DE DICIEMBRE, Itapua, Bella Vista, 6310",
    "cleaned_address": "Avenida 29 de Septiembre / 8 de Diciembre, Bella Vista, Itapúa, 6310, Paraguay",
    "state": "Itapúa",
    "city": "Bella Vista",
    "street": "Avenida 29 de Septiembre / 8 de Diciembre",
    "country": "Paraguay",
    "latitude": -27.0440065,
    "longitude": -55.58224629999999,
    "maps_link": "https://www.google.com/maps?q=-27.0440065,-55.58224629999999"
  },
  {
    "original_address": "Gobernador Irala y Feliciano Baez N.44 A dos cuadras de Black Gym, Aregua, Central, FCPY-047327",
    "cleaned_address": "Gobernador Irala y Feliciano Baez N.44, A dos cuadras de Black Gym, Aregua, Central, FCPY-047327, Paraguay",
    "state": "Central",
    "city": "Aregua",
    "street": "Gobernador Irala y Feliciano Baez",
    "country": "Paraguay",
    "latitude": -25.2963203,
    "longitude": -57.4274539,
    "maps_link": "https://www.google.com/maps?q=-25.2963203,-57.4274539"
  },
  {
    "original_address": "Hernandarias Parana country club circunvalacion oeste 11 Casa, Hernandarias, Paraguay, 7220",
    "cleaned_address": "Parana Country Club, Circunvalación Oeste, Hernandarias, Alto Paraná, Paraguay",
    "state": "Alto Paraná",
    "city": "Hernandarias",
    "street": "Parana Country Club, Circunvalación Oeste",
    "country": "Paraguay",
    "latitude": -25.4860007,
    "longitude": -54.6247648,
    "maps_link": "https://www.google.com/maps?q=-25.4860007,-54.6247648"
  },
  {
    "original_address": "Profesor Guillermo Cabral casi Dr Rodriguez de Francia Local Comercial MOICELL, Concepcion, Concepcion, 8700",
    "cleaned_address": "Profesor Guillermo Cabral casi Dr. Rodriguez de Francia Local Comercial MOICELL, Concepcion, Concepcion, 8700, Paraguay",
    "state": "Concepcion",
    "city": "Concepcion",
    "street": "Profesor Guillermo Cabral casi Dr. Rodriguez de Francia Local Comercial MOICELL",
    "country": "Paraguay",
    "latitude": -23.4046488,
    "longitude": -57.4386048,
    "maps_link": "https://www.google.com/maps?q=-23.4046488,-57.4386048"
  },
  {
    "original_address": "Herminio Gimenez N° 3578 entre Solar Guarani y Rogelio Santacruz, AS-PY, Capital, 1230",
    "cleaned_address": "Herminio Gimenez No. 3578 entre Solar Guarani y Rogelio Santacruz, Asunción, Distrito Capital, Paraguay, 1230",
    "state": "Distrito Capital",
    "city": "Asunción",
    "street": "Herminio Gimenez entre Solar Guarani y Rogelio Santacruz",
    "country": "Paraguay",
    "latitude": -25.3031223,
    "longitude": -57.6033841,
    "maps_link": "https://www.google.com/maps?q=-25.3031223,-57.6033841"
  },
  {
    "original_address": "mejico esquina brisas del lago, hernandarias, alto parana py, 3000",
    "cleaned_address": "México esquina Brisas del Lago, Hernandarias, Alto Paraná, Paraguay, 3000",
    "state": "Alto Paraná",
    "city": "Hernandarias",
    "street": "México esquina Brisas del Lago",
    "country": "Paraguay",
    "latitude": -25.4064616,
    "longitude": -54.6442112,
    "maps_link": "https://www.google.com/maps?q=-25.4064616,-54.6442112"
  },
  {
    "original_address": "Adela Speratti casi Del Maestto, Luque, Departamento Central, 110933",
    "cleaned_address": "Adela Speratti casi Del Maestro, Luque, Departamento Central, 110933",
    "state": "Central",
    "city": "Luque",
    "street": "Adela Speratti casi Del Maestro",
    "country": "Paraguay",
    "latitude": -25.2730029,
    "longitude": -57.5015507,
    "maps_link": "https://www.google.com/maps?q=-25.2730029,-57.5015507"
  },
  {
    "original_address": "General Santos esquina concordia Complejo Santos, Asuncion, Asuncion, 1209",
    "cleaned_address": "General Santos esquina Concordia Complejo Santos, Asunción, Asunción, 1209, Paraguay",
    "state": "Asunción",
    "city": "Asunción",
    "street": "General Santos esquina Concordia Complejo Santos",
    "country": "Paraguay",
    "latitude": -25.2796989,
    "longitude": -57.60926660000001,
    "maps_link": "https://www.google.com/maps?q=-25.2796989,-57.60926660000001"
  },
  {
    "original_address": "FRACCION DON VICTOR, VILLARRICA, GUAIRA, 0541",
    "cleaned_address": "Fracción Don Victor, Villarrica, Guairá, 0541, Paraguay",
    "state": "Guairá",
    "city": "Villarrica",
    "street": "Fracción Don Victor",
    "country": "Paraguay",
    "latitude": -25.7844029,
    "longitude": -56.470658,
    "maps_link": "https://www.google.com/maps?q=-25.7844029,-56.470658"
  },
  {
    "original_address": "Casilla de Correo (P. O. Box) 1839, Asuncion, Paraguay, Asuncion, 1209",
    "cleaned_address": "Casilla de Correo 1839, Asunción, Distrito Capital, Paraguay, 1209",
    "state": "Distrito Capital",
    "city": "Asunción",
    "street": "",
    "country": "Paraguay",
    "latitude": -25.2637399,
    "longitude": -57.57592599999999,
    "maps_link": "https://www.google.com/maps?q=-25.2637399,-57.57592599999999"
  }
]